City_ID,City,Lat,Lng,Max Temp,Humidity,Cloudiness,Wind Speed,Country,Date
0,Ushuaia,-54.8,-68.3,32.0,95,90,23.04,AR,1595810577
1,Saskylakh,71.92,114.08,38.73,94,100,18.34,RU,1595810577
2,Jamestown,42.1,-79.24,77.0,65,1,5.82,US,1595810404
3,Lüderitz,-26.65,15.16,60.8,63,0,12.75,NA,1595810531
4,Mpulungu,-8.76,31.11,65.32,67,56,7.83,ZM,1595810578
5,Kaitangata,-46.28,169.85,53.01,58,0,4.0,NZ,1595810116
6,Atuona,-9.8,-139.03,80.22,72,3,23.38,PF,1595810523
7,Kayiry,46.95,33.71,71.49,78,100,10.42,UA,1595810579
8,Ponta do Sol,32.67,-17.1,69.8,68,20,16.11,PT,1595810579
9,Bijie,27.31,105.29,72.03,66,0,4.0,CN,1595810579
10,Cherskiy,68.75,161.3,65.25,58,0,19.69,RU,1595810579
11,Kapaa,22.08,-159.32,80.6,78,90,24.16,US,1595810580
12,Qandala,11.47,49.87,86.88,57,0,2.71,SO,1595810580
13,Hobyo,5.35,48.53,77.38,75,3,18.39,SO,1595810580
14,Tuatapere,-46.13,167.68,52.47,61,0,3.96,NZ,1595810109
15,Hermanus,-34.42,19.23,46.0,85,0,1.01,ZA,1595810581
16,Hualmay,-11.1,-77.61,60.08,84,4,6.98,PE,1595810472
17,Carnarvon,-24.87,113.63,55.4,93,0,5.82,AU,1595810024
18,Mataura,-46.19,168.86,49.89,61,0,2.51,NZ,1595810582
19,Tiarei,-17.53,-149.33,82.4,74,75,11.41,PF,1595810582
20,Vaini,-21.2,-175.2,75.2,78,75,10.29,TO,1595810524
21,Ust-Kuyga,70.02,135.6,48.65,83,100,6.29,RU,1595810476
22,Lebu,-37.62,-73.65,49.05,82,62,8.23,CL,1595810582
23,Narsaq,60.92,-46.05,50.0,76,18,5.82,GL,1595810583
24,Punta Arenas,-53.15,-70.92,35.6,74,81,16.11,CL,1595810583
25,Busselton,-33.65,115.33,64.0,86,86,7.0,AU,1595810526
26,Rikitea,-23.12,-134.97,70.32,79,0,19.89,PF,1595810583
27,Bengkulu,-3.8,102.27,78.1,75,7,4.07,ID,1595810584
28,São Filipe,14.9,-24.5,76.23,84,73,8.93,CV,1595810244
29,East London,-33.02,27.91,59.2,66,97,10.4,ZA,1595810541
30,Hobart,-42.88,147.33,51.01,87,75,5.82,AU,1595810435
31,Dongying,37.46,118.49,81.07,56,0,7.92,CN,1595810584
32,Port Alfred,-33.59,26.89,56.84,68,99,7.29,ZA,1595810585
33,Barrow,71.29,-156.79,46.4,93,90,19.46,US,1595810585
34,Bambous Virieux,-20.34,57.76,70.0,70,78,7.0,MU,1595810585
35,Khatanga,71.97,102.5,44.91,70,100,10.02,RU,1595810585
36,Fortuna,40.6,-124.16,66.99,71,24,1.99,US,1595810429
37,Paamiut,61.99,-49.67,45.63,90,39,1.16,GL,1595810544
38,Tiksi,71.69,128.87,37.45,93,100,11.14,RU,1595810221
39,Eureka,40.8,-124.16,59.0,77,90,6.93,US,1595810532
40,Alappuzha,9.49,76.33,79.02,84,100,5.68,IN,1595810587
41,Iqaluit,63.75,-68.51,50.0,87,40,5.82,CA,1595810587
42,College,64.86,-147.8,69.8,52,75,6.93,US,1595810330
43,Tasiilaq,65.61,-37.64,42.8,87,95,5.82,GL,1595810050
44,Lom Sak,16.78,101.24,77.0,100,75,2.39,TH,1595810587
45,Yeppoon,-23.13,150.73,66.2,45,0,6.93,AU,1595810588
46,Nikolskoye,59.7,30.79,53.01,93,0,2.71,RU,1595810588
47,Guerrero Negro,27.98,-114.06,71.85,74,0,20.92,MX,1595810588
48,Umm Kaddadah,13.6,26.69,80.29,66,54,17.07,SD,1595810588
49,Chebenki,51.93,55.71,57.2,76,20,11.18,RU,1595810649
50,Douentza,15.0,-2.95,86.52,53,38,4.52,ML,1595810649
51,Coahuayana Viejo,18.73,-103.68,75.2,88,75,2.55,MX,1595810649
52,Vardø,70.37,31.11,58.28,74,6,10.96,NO,1595810650
53,Dikson,73.51,80.55,37.8,89,100,14.0,RU,1595810650
54,Hong Kong,22.29,114.16,86.0,83,8,11.99,HK,1595810473
55,Bindura,-17.3,31.33,45.48,77,5,1.72,ZW,1595810650
56,Longyearbyen,78.22,15.64,55.4,82,20,10.29,SJ,1595810469
57,Hamilton,39.18,-84.53,88.0,66,1,4.7,US,1595810389
58,Namatanai,-3.67,152.43,85.21,68,100,7.14,PG,1595810106
59,Palauig,15.44,119.9,86.05,67,0,2.91,PH,1595810651
60,Butaritari,3.07,172.79,83.64,74,51,10.92,KI,1595810652
61,Cabo San Lucas,22.89,-109.91,88.0,51,5,10.29,MX,1595810652
62,Shimoda,34.67,138.95,82.4,83,75,11.41,JP,1595810453
63,St. George's,12.06,-61.75,82.4,78,75,8.05,GD,1595810612
64,Coyhaique,-45.58,-72.07,33.8,64,40,3.36,CL,1595810252
65,Clovis,36.83,-119.7,102.0,19,20,4.7,US,1595810653
66,Hilo,19.73,-155.09,89.6,59,75,18.34,US,1595810653
67,Muroto-misakicho,33.28,134.15,77.0,100,75,3.36,JP,1595810653
68,Batemans Bay,-35.72,150.18,51.01,93,100,24.58,AU,1595810654
69,Northam,51.03,-4.22,60.01,96,100,7.0,GB,1595810431
70,Boyuibe,-20.42,-63.28,58.59,70,0,2.73,BO,1595810654
71,Tegul'det,57.31,88.17,55.96,90,18,4.43,RU,1595810654
72,Rønne,55.1,14.71,62.6,93,98,2.24,DK,1595810655
73,Port Lincoln,-34.73,135.87,56.62,76,93,12.8,AU,1595810212
74,Yangi Marg`ilon,40.43,71.72,71.6,60,75,6.93,UZ,1595810655
75,Bluff,-46.6,168.33,48.43,67,0,6.64,NZ,1595810655
76,Požega,45.34,17.69,63.0,88,92,2.24,HR,1595810656
77,Sotnikovo,51.88,107.48,62.6,93,75,4.52,RU,1595810656
78,Sinnamary,5.38,-52.95,79.39,83,73,8.57,GF,1595810656
79,Olafsvik,64.89,-23.71,48.22,71,35,9.8,IS,1595810413
80,Viedma,-40.81,-63.0,44.01,88,95,3.0,AR,1595810381
81,Kogon,39.72,64.55,75.2,41,0,11.41,UZ,1595810657
82,Leningradskiy,69.38,178.42,66.56,49,100,13.65,RU,1595810657
83,Geraldton,-28.77,114.6,55.4,66,0,14.99,AU,1595810128
84,Qaanaaq,77.48,-69.36,42.39,65,0,3.62,GL,1595810658
85,Faya,18.39,42.45,64.4,88,40,10.29,SA,1595810658
86,Impfondo,1.64,18.07,68.07,98,86,2.39,CG,1595810658
87,Hohhot,40.81,111.65,64.4,93,20,2.24,CN,1595810659
88,Sovetskiy,61.36,63.58,56.66,83,0,6.33,RU,1595810659
89,Albany,42.6,-73.97,80.01,55,95,5.3,US,1595810546
90,Korla,41.76,86.15,87.01,71,11,1.01,CN,1595810387
91,Lethem,3.38,-59.8,76.8,82,11,4.07,GY,1595810198
92,Matara,5.95,80.54,78.51,86,100,13.98,LK,1595810660
93,Kozhva,65.11,57.05,58.01,73,0,6.08,RU,1595810660
94,Pevek,69.7,170.31,48.09,82,45,15.14,RU,1595810538
95,Gizo Government Station,-8.1,156.84,83.75,73,0,7.99,SB,1595810721
96,Port Blair,11.67,92.75,82.6,75,100,1.03,IN,1595810721
97,Sisimiut,66.94,-53.67,45.5,91,100,7.36,GL,1595810721
98,Saint-Philippe,-21.36,55.77,66.2,72,89,5.82,RE,1595810721
99,Qorveh,35.17,47.8,61.12,32,43,1.59,IR,1595810561
100,Lingao,19.91,109.69,87.17,64,99,3.24,CN,1595810722
101,Shahreza,32.03,51.88,70.09,32,7,0.96,IR,1595810722
102,Acaraú,-2.89,-40.12,76.69,81,78,15.23,BR,1595810325
103,Houston,29.76,-95.36,86.0,78,20,9.17,US,1595810341
104,Silver City,32.77,-108.28,64.4,88,90,12.75,US,1595810723
105,Godhra,22.75,73.63,80.6,94,40,3.36,IN,1595810723
106,Avarua,-21.21,-159.78,71.6,88,64,8.05,CK,1595810724
107,Quelimane,-17.88,36.89,64.4,88,15,3.15,MZ,1595810724
108,Cape Town,-33.93,18.42,53.01,76,0,6.93,ZA,1595810526
109,Brownsville,25.9,-97.5,84.2,89,90,14.99,US,1595810725
110,Kalabo,-14.97,22.68,51.37,57,0,6.17,ZM,1595810725
111,Manavālakurichi,8.13,77.3,80.6,83,40,5.82,IN,1595810725
112,Dossor,47.53,52.98,73.53,37,88,8.66,KZ,1595810726
113,Daru,-9.08,143.21,79.68,83,46,16.13,PG,1595810726
114,Ilulissat,69.22,-51.1,44.6,93,100,3.36,GL,1595810414
115,New Norfolk,-42.78,147.06,51.01,78,100,3.0,AU,1595810727
116,Yerbogachën,61.28,108.01,63.61,69,5,6.67,RU,1595810538
117,Ahipara,-35.17,173.17,57.49,55,46,4.88,NZ,1595810727
118,Kahului,20.89,-156.47,80.6,78,90,9.17,US,1595810058
119,Nynäshamn,58.9,17.95,66.0,90,100,5.01,SE,1595810505
120,Buala,-8.14,159.59,84.49,74,40,10.49,SB,1595810728
121,Necochea,-38.55,-58.74,48.0,45,100,7.0,AR,1595810728
122,Tuktoyaktuk,69.45,-133.04,68.0,52,75,3.36,CA,1595810728
123,Phanom Sarakham,13.75,101.36,90.0,100,94,5.14,TH,1595810729
124,Minggang,32.46,114.05,73.08,89,98,3.04,CN,1595810729
125,Tessalit,20.2,1.01,89.78,34,6,7.65,ML,1595810729
126,Cidreira,-30.18,-50.21,57.94,87,100,13.04,BR,1595810729
127,Wurzen,51.37,12.73,59.0,93,40,2.24,DE,1595810730
128,Santa Cruz de la Sierra,-17.8,-63.17,62.6,82,45,5.82,BO,1595810448
129,Vigrestad,58.57,5.7,55.0,99,6,1.01,NO,1595810499
130,Port Elizabeth,-33.92,25.57,51.8,93,40,5.82,ZA,1595810731
131,Egvekinot,66.32,-179.17,64.9,68,8,7.54,RU,1595810731
132,Adrar,20.5,-10.07,92.61,29,0,10.18,MR,1595810312
133,Shingū,33.73,135.98,78.8,94,75,10.29,JP,1595810731
134,Kokkola,63.84,23.13,59.0,93,0,2.24,FI,1595810589
135,Xambioá,-6.41,-48.54,75.79,40,0,3.27,BR,1595810732
136,La Santisima Trinidad,-14.83,-64.9,68.77,58,76,2.59,BO,1595810447
137,Arraial do Cabo,-22.97,-42.03,71.6,88,75,15.1,BR,1595810792
138,Margate,51.38,1.39,63.0,86,100,1.99,GB,1595810793
139,Rey Bouba,8.67,14.18,71.33,96,100,2.55,CM,1595810793
140,County Wicklow,53.0,-6.42,55.99,93,75,6.93,IE,1595810590
141,El Copé,8.62,-80.6,73.99,89,100,2.66,PA,1595810793
142,Wau,7.7,28.0,69.39,96,100,4.03,SS,1595810794
143,‘Āhuimanu,21.44,-157.84,84.2,74,90,16.11,US,1595810794
144,Saldanha,-33.01,17.94,48.2,76,0,1.12,ZA,1595810794
145,Acapulco de Juárez,16.86,-99.89,87.8,66,75,5.82,MX,1595810445
146,Faanui,-16.48,-151.75,79.21,78,100,16.51,PF,1595810795
147,Bludenz,47.15,9.82,64.99,87,1,1.99,AT,1595810795
148,Bethel,41.37,-73.41,81.0,57,1,5.82,US,1595810796
149,Popova,42.96,131.72,69.8,94,75,4.47,RU,1595810796
150,Santiago del Estero,-27.8,-64.26,57.27,38,0,8.05,AR,1595810796
151,Castro,-24.79,-50.01,55.26,93,100,4.38,BR,1595810680
152,Tautira,-17.73,-149.15,82.4,74,75,11.41,PF,1595810797
153,Clyde River,70.47,-68.59,44.6,87,75,8.05,CA,1595810557
154,Kirakira,-10.45,161.92,83.5,74,6,11.61,SB,1595810589
155,Węgrów,52.4,22.02,66.99,79,62,2.08,PL,1595810797
156,Esperance,-33.87,121.9,50.0,93,99,20.8,AU,1595810570
157,Brae,60.4,-1.35,51.8,93,0,6.93,GB,1595810798
158,Mar del Plata,-38.0,-57.56,52.0,87,90,9.17,AR,1595810798
159,Upernavik,72.79,-56.15,44.64,84,66,6.76,GL,1595810799
160,Kaeo,-35.1,173.78,60.01,43,0,3.0,NZ,1595810799
161,Bredasdorp,-34.53,20.04,42.8,87,1,3.36,ZA,1595810547
162,Deputatsky,69.3,139.9,56.55,70,76,5.26,RU,1595810799
163,Ballina,-28.87,153.57,64.4,55,0,27.51,AU,1595810800
164,Kitimat,54.05,-128.65,68.0,82,36,1.01,CA,1595810800
165,Bairiki Village,1.33,172.98,87.8,70,20,9.17,KI,1595810800
166,Yulara,-25.24,130.99,55.4,54,0,12.75,AU,1595810800
167,Mahébourg,-20.41,57.7,70.0,70,72,7.0,MU,1595810801
168,Rio Grande,-32.03,-52.1,50.0,86,58,12.19,BR,1595810566
169,Emba,48.83,58.14,64.92,61,0,5.14,KZ,1595810801
170,Casablanca,33.59,-7.62,69.8,100,40,6.93,MA,1595810689
171,Provideniya,64.38,-173.3,51.8,76,75,20.13,RU,1595810802
172,Saint Paul Harbor,57.79,-152.41,60.8,72,75,6.93,US,1595810584
173,Balkhash,46.84,74.98,72.91,47,100,12.86,KZ,1595810803
174,Saint George,37.1,-113.58,102.2,10,1,11.41,US,1595810803
175,Riyadh,24.69,46.72,89.6,35,100,8.57,SA,1595810803
176,Boa Vista,2.82,-60.67,80.6,78,40,3.36,BR,1595810805
177,Shache,38.42,77.24,80.71,25,100,9.86,CN,1595810805
178,Constitución,-35.33,-72.42,50.88,87,100,7.2,CL,1595810806
179,Los Llanos de Aridane,28.66,-17.92,71.6,73,11,13.87,ES,1595810806
180,Chokurdakh,70.63,147.92,43.59,72,100,13.62,RU,1595810806
181,Kavaratti,10.57,72.64,81.75,78,7,9.66,IN,1595810867
182,Puerto Ayora,-0.74,-90.35,68.0,88,62,1.99,EC,1595810867
183,Taltal,-25.4,-70.48,56.93,70,0,3.29,CL,1595810867
184,Kaya,13.09,-1.08,79.41,72,0,10.87,BF,1595810272
185,Vila Franca do Campo,37.72,-25.43,69.8,88,75,5.82,PT,1595810868
186,Honningsvåg,70.98,25.97,58.28,73,5,12.15,NO,1595810868
187,Tual,-5.67,132.75,79.36,83,86,25.57,ID,1595810868
188,Ljungby,56.83,13.94,55.99,100,2,5.82,SE,1595810869
189,Alofi,-19.06,-169.92,71.6,100,37,9.17,NU,1595810869
190,Hithadhoo,-0.6,73.08,82.45,67,94,4.79,MV,1595810869
191,Kabare,-2.47,28.82,59.85,66,0,2.57,CD,1595810870
192,Māngrol,21.12,70.12,82.67,83,0,5.95,IN,1595810870
193,Okhotsk,59.38,143.3,63.32,65,0,4.25,RU,1595810870
194,Coalinga,36.14,-120.36,100.99,17,0,13.98,US,1595810870
195,Nikolayevskaya,47.61,41.5,70.97,43,98,10.96,RU,1595810871
196,Muyezerskiy,63.93,31.65,50.7,89,0,2.98,RU,1595810871
197,Anloga,5.79,0.9,75.2,88,40,9.17,GH,1595810871
198,Pampa,35.54,-100.96,93.2,28,1,12.75,US,1595810871
199,Puerto Madero,14.72,-92.42,80.6,94,90,5.82,MX,1595810872
200,Coihueco,-36.62,-71.83,48.2,100,100,4.7,CL,1595810872
201,Sibolga,1.74,98.78,79.81,71,89,2.3,ID,1595810872
202,Tommot,58.96,126.29,76.95,59,100,4.68,RU,1595810872
203,Paranaíba,-19.68,-51.19,71.87,46,0,3.13,BR,1595810873
204,Coquimbo,-29.95,-71.34,53.6,81,80,2.24,CL,1595810873
205,Phibun Mangsahan,15.24,105.23,82.4,78,20,3.36,TH,1595810873
206,Katsuura,35.13,140.3,86.0,70,75,14.99,JP,1595810874
207,Pangkalanbuun,-2.68,111.62,79.99,76,35,5.1,ID,1595810695
208,Newport,51.59,-3.0,61.0,94,100,1.01,GB,1595810874
209,Pingxiang,27.62,113.85,79.93,88,99,3.02,CN,1595810874
210,Baykit,61.67,96.37,61.11,77,58,4.29,RU,1595810875
211,Neiafu,-18.65,-173.98,78.8,78,40,11.41,TO,1595810875
212,Maceió,-9.67,-35.74,73.4,83,40,4.7,BR,1595810875
213,Norsup,-16.07,167.38,82.4,74,40,10.29,VU,1595810875
214,Klaksvík,62.23,-6.59,48.2,93,100,14.99,FO,1595810876
215,Port Augusta,-32.5,137.77,55.4,87,90,9.17,AU,1595810596
216,Jamame,0.07,42.75,74.59,83,19,10.18,SO,1595810876
217,Guiyang,26.58,106.72,71.6,83,0,4.47,CN,1595810877
218,Cayenne,4.93,-52.33,75.2,100,5,9.31,GF,1595810841
219,Zhezkazgan,47.8,67.71,69.8,39,0,5.1,KZ,1595810877
220,Mount Gambier,-37.83,140.77,53.6,66,40,11.41,AU,1595810878
221,Nardaran,40.56,50.01,77.0,88,0,6.93,AZ,1595810878
222,Kutum,14.2,24.67,75.16,49,100,2.21,SD,1595810878
223,Makakilo City,21.35,-158.09,87.8,55,75,12.75,US,1595810406
224,Kampene,-3.6,26.67,67.6,44,0,2.21,CD,1595810939
225,Broken Hill,-31.95,141.43,51.8,81,90,19.46,AU,1595810939
226,Torbay,47.67,-52.73,55.99,100,90,17.22,CA,1595810940
227,Lubāna,56.9,26.72,52.27,88,0,3.33,LV,1595810940
228,Quatre Cocos,-20.21,57.76,70.0,70,97,7.0,MU,1595810940
229,Laje,-10.18,-40.97,66.43,70,0,11.52,BR,1595810940
230,Vanavara,60.34,102.28,58.68,74,96,8.14,RU,1595810941
231,Correntina,-13.34,-44.64,67.12,65,3,4.81,BR,1595810941
232,Padang,-0.95,100.35,73.4,100,20,4.7,ID,1595810941
233,Kuril'sk,45.23,147.88,59.02,69,1,5.5,RU,1595810941
234,Kadugannawa,7.25,80.52,68.04,85,100,2.59,LK,1595810942
235,Taganak,6.08,118.3,82.4,83,20,2.24,PH,1595810942
236,Akhtubinsk,48.28,46.17,69.53,32,0,6.33,RU,1595810942
237,El Vigia,8.62,-71.65,78.01,77,99,2.91,VE,1595810942
238,Marawi,8.0,124.29,82.99,79,8,4.0,PH,1595810943
239,Potosí,-19.58,-65.75,37.78,49,0,3.36,BO,1595810785
240,Taoudenni,22.68,-3.98,99.05,9,0,9.78,ML,1595810871
241,Najrān,17.49,44.13,73.4,83,40,19.46,SA,1595810944
242,Atar,20.52,-13.05,91.8,34,0,15.08,MR,1595810738
243,Maiduguri,11.85,13.16,75.07,80,100,10.47,NG,1595810944
244,Vila Velha,-20.33,-40.29,71.01,94,75,1.12,BR,1595810945
245,Santa Rosalía,27.32,-112.28,91.9,39,0,1.14,MX,1595810945
246,Mildura,-34.2,142.15,55.4,82,90,11.41,AU,1595810813
247,Prince Rupert,54.32,-130.32,64.4,88,90,8.05,CA,1595810946
248,Kearney,40.7,-99.08,77.0,94,90,5.82,US,1595810773
249,Petropavlovsk-Kamchatskiy,53.05,158.65,73.4,56,2,4.47,RU,1595810946
250,Peniche,39.36,-9.38,64.0,91,0,11.01,PT,1595810946
251,Tremedal,-14.98,-41.41,63.97,90,17,4.5,BR,1595810946
252,Banganapalle,15.32,78.23,76.89,75,92,11.3,IN,1595810947
253,Moose Factory,51.26,-80.61,80.6,78,40,5.82,CA,1595810947
254,Lodja,-3.48,23.43,70.41,59,0,2.42,CD,1595810841
255,Nemuro,43.32,145.57,57.2,93,75,1.12,JP,1595810896
256,Vanimo,-2.67,141.3,85.89,61,85,4.97,PG,1595810948
257,Pitiquito,30.7,-112.08,100.99,22,0,8.99,MX,1595810948
258,Abu Dhabi,24.47,54.37,93.2,63,100,2.24,AE,1595810883
259,George Town,5.41,100.34,82.4,94,20,5.39,MY,1595810948
260,Lompoc,34.64,-120.46,66.2,68,1,14.99,US,1595810949
261,Gravdal,68.12,13.5,58.41,72,72,13.2,NO,1595810949
262,Puerto Madryn,-42.77,-65.04,41.47,82,100,9.46,AR,1595810716
263,Koumac,-20.57,164.28,75.72,65,11,5.57,NC,1595810950
264,Atwater,37.35,-120.61,100.4,21,1,10.29,US,1595810855
265,Meadow Lake,34.8,-106.54,71.6,72,90,5.82,US,1595810950
266,Tsimmerbude,54.67,20.13,62.6,93,75,4.47,RU,1595810950
267,Kimberley,-28.73,24.76,39.2,64,0,0.63,ZA,1595810950
268,Puerto Baquerizo Moreno,-0.9,-89.6,69.8,83,75,10.29,EC,1595811011
269,Fairbanks,64.84,-147.72,66.2,52,75,6.93,US,1595810263
270,Caravelas,-17.71,-39.25,72.32,82,69,5.46,BR,1595811011
271,Aklavik,68.22,-135.01,69.8,56,75,5.82,CA,1595811011
272,Broome,42.25,-75.83,80.6,57,1,4.7,US,1595811012
273,Saint-Augustin,51.23,-58.65,54.72,93,17,7.36,CA,1595811012
274,Douglas,41.3,-96.17,78.8,83,40,5.82,US,1595811012
275,Manggar,-2.88,108.27,81.81,74,97,15.23,ID,1595811012
276,Berdigestyakh,62.1,126.7,70.21,58,100,2.42,RU,1595811013
277,Munirābād,15.33,76.33,73.02,85,24,11.88,IN,1595811013
278,Baker City,44.77,-117.83,93.2,9,1,6.93,US,1595811013
279,Novomichurinsk,54.04,39.75,57.69,79,35,4.32,RU,1595811014
280,Sekoma,-24.4,23.88,45.88,53,0,5.84,BW,1595811014
281,Katangli,51.71,143.23,60.37,75,12,8.9,RU,1595811014
282,Airai,-8.93,125.41,66.61,58,99,5.3,TL,1595811015
283,Leeton,-34.57,146.4,52.0,87,90,14.99,AU,1595811015
284,Agüimes,27.91,-15.45,73.4,69,75,27.51,ES,1595811015
285,Sayyan,15.17,44.32,58.08,86,100,3.38,YE,1595811015
286,Saint-François,46.42,3.91,59.0,87,0,3.36,FR,1595811016
287,Yellowknife,62.46,-114.35,75.99,52,40,11.41,CA,1595810732
288,Ulladulla,-35.35,150.47,55.4,100,90,34.45,AU,1595811016
289,Halifax,44.65,-63.57,73.4,78,75,9.17,CA,1595810727
290,Dinganen,7.33,124.38,82.72,72,32,2.91,PH,1595811017
291,Arrecife,28.96,-13.55,73.4,78,90,19.46,ES,1595811017
292,Vao,-22.67,167.48,71.31,81,2,17.43,NC,1595811018
293,Ancud,-41.87,-73.82,35.6,93,20,2.24,CL,1595811018
294,Tupik,54.43,119.93,69.8,85,96,3.09,RU,1595811018
295,Shenzhen,22.55,114.07,89.01,70,20,8.95,CN,1595810959
296,Kalmar,56.66,16.36,61.0,100,38,3.36,SE,1595811019
297,Olenegorsk,68.15,33.3,53.6,80,55,1.61,RU,1595811020
298,Vallenar,-28.57,-70.76,63.45,32,50,1.05,CL,1595811020
299,Akwatia,6.04,-0.81,69.24,92,40,2.15,GH,1595811020
300,Portland,45.52,-122.68,100.0,13,1,12.75,US,1595810998
301,Kampong Thom,12.71,104.89,80.38,86,86,5.06,KH,1595811021
302,Gandajika,-6.75,23.95,61.92,39,0,3.09,CD,1595811021
303,Fuxin,42.02,121.66,73.72,74,100,4.9,CN,1595811021
304,Yermakovskoye,53.28,92.4,58.71,85,100,9.31,RU,1595811022
305,Salalah,17.02,54.09,78.8,94,75,2.24,OM,1595811022
306,Lavrentiya,65.58,-171.0,62.69,60,100,16.44,RU,1595811016
307,Amuntai,-2.42,115.25,81.43,69,1,2.17,ID,1595811023
308,Thompson,55.74,-97.86,62.6,82,75,4.7,CA,1595811000
309,Ilo,-17.64,-71.34,59.25,79,46,2.95,PE,1595811023
310,Jaciara,-15.97,-54.97,71.35,42,0,1.99,BR,1595811024
311,Saint-Pierre,-21.34,55.48,66.2,72,22,5.82,RE,1595811024
312,Lancaster,40.25,-76.25,86.0,48,1,6.93,US,1595811024
313,Ouésso,1.61,16.05,69.85,95,79,2.66,CG,1595811085
314,Worland,44.02,-107.96,91.4,15,1,8.05,US,1595811079
315,Ust'-Kut,56.79,105.77,67.78,53,100,1.86,RU,1595811085
316,Yarim,14.3,44.38,58.44,84,100,1.81,YE,1595811085
317,Calbuco,-41.77,-73.13,39.2,80,20,4.7,CL,1595811086
318,Kuala Terengganu,5.33,103.14,80.6,83,20,5.82,MY,1595810957
319,Evanston,42.04,-87.69,91.4,49,40,16.11,US,1595811029
320,La Ronge,55.1,-105.28,73.4,53,40,13.87,CA,1595811086
321,Consett,54.85,-1.83,57.99,85,100,4.63,GB,1595811087
322,Elektrėnai,54.77,24.63,61.0,82,12,2.24,LT,1595811087
323,Ndélé,8.41,20.65,67.57,97,45,3.33,CF,1595811088
324,Yumen,40.28,97.2,78.08,18,0,7.85,CN,1595811022
325,Weligama,5.97,80.42,78.84,86,100,13.27,LK,1595811088
326,Verkhoyansk,67.54,133.38,71.78,34,1,13.0,RU,1595811088
327,Okato,-39.2,173.88,54.0,62,0,4.0,NZ,1595811089
328,Altamont,42.21,-121.74,93.0,15,1,3.36,US,1595811089
329,Ust'-Koksa,50.27,85.61,56.39,75,100,0.65,RU,1595811089
330,Port-Cartier,50.03,-66.87,68.0,68,75,4.7,CA,1595811089
331,Mareeba,-17.0,145.43,80.01,44,0,10.29,AU,1595811090
332,Horconcitos,8.47,-81.8,69.33,95,100,1.57,PA,1595811090
333,Gawler,-34.6,138.73,54.0,95,95,1.99,AU,1595811090
334,Eirunepé,-6.66,-69.87,74.52,80,0,1.36,BR,1595811090
335,Severo-Kuril'sk,50.68,156.12,52.95,86,100,16.82,RU,1595811091
336,Sioux Lookout,50.1,-91.92,77.0,38,40,4.7,CA,1595811070
337,Broni,45.07,9.26,73.0,88,0,0.51,IT,1595811091
338,San Andrés,12.58,-81.7,82.4,78,75,10.29,CO,1595811091
339,Marabba,12.35,32.18,78.48,73,100,12.84,SD,1595811092
340,Balaipungut,1.05,101.28,77.0,88,40,3.4,ID,1595811092
341,Nushki,29.55,66.02,78.87,56,0,4.9,PK,1595811092
342,Pacific Grove,36.62,-121.92,71.01,68,1,11.41,US,1595811092
343,Tiznit Province,29.58,-9.5,75.25,54,0,1.99,MA,1595811093
344,Pangoa,-12.12,-73.0,67.3,84,0,2.42,PE,1595811093
345,Borogontsy,62.67,131.17,68.41,62,100,4.63,RU,1595811093
346,Altamira,-3.2,-52.21,77.94,56,6,2.21,BR,1595811094
347,San Luis,-33.3,-66.34,51.3,41,5,10.92,AR,1595811094
348,Maxixe,-23.86,35.35,61.7,79,0,5.84,MZ,1595811094
349,Aswān,24.09,32.91,87.76,14,0,8.79,EG,1595811095
350,Luanda,-8.84,13.23,71.6,88,75,8.05,AO,1595811095
351,Xichang,27.9,102.26,66.87,72,67,1.66,CN,1595811095
352,Tilichiki,60.47,166.1,69.69,46,0,4.83,RU,1595811096
353,Ribeira Grande,38.52,-28.7,73.04,91,10,4.45,PT,1595811096
354,Tabas,33.6,56.92,93.2,17,0,4.7,IR,1595811096
355,Maku,39.29,44.45,72.43,28,0,3.85,IR,1595811096
356,Neckarsulm,49.19,9.23,59.0,92,17,2.26,DE,1595811097
357,Conceição do Araguaia,-8.26,-49.26,77.0,57,91,3.36,BR,1595810857
358,Lorengau,-2.02,147.27,83.07,80,19,7.58,PG,1595811097
359,Mayo,38.89,-76.51,86.0,58,1,5.19,US,1595810917
360,Rafaela,-31.25,-61.49,52.0,40,31,1.99,AR,1595811158
361,Sussex,41.18,-74.67,80.6,61,1,3.94,US,1595811158
362,Kirovskiy,45.09,133.51,76.86,64,0,2.93,RU,1595811158
363,Kudat,6.88,116.85,80.6,88,20,3.36,MY,1595811158
364,São João da Barra,-21.64,-41.05,72.45,86,69,12.46,BR,1595811159
365,São João dos Patos,-6.5,-43.7,71.33,48,72,4.7,BR,1595811159
366,Chilca,-12.52,-76.74,59.0,87,90,6.93,PE,1595811159
367,Vilhena,-12.74,-60.15,69.78,49,0,2.28,BR,1595810966
368,Libertador General San Martín,-23.81,-64.79,53.49,39,0,2.37,AR,1595811160
369,Zyryanka,65.75,150.85,76.26,55,100,7.0,RU,1595811160
370,Yar-Sale,66.83,70.83,51.76,70,100,8.72,RU,1595811161
371,Teahupoo,-17.83,-149.27,82.4,74,75,11.41,PF,1595811161
372,Haines Junction,60.75,-137.51,57.0,50,0,12.55,CA,1595811161
373,Chirongui,-12.93,45.15,75.2,73,100,12.75,YT,1595811161
374,Timmins,48.47,-81.33,80.6,69,75,3.36,CA,1595811162
375,Kruglolesskoye,44.66,42.81,69.8,68,3,6.71,RU,1595811162
376,Lethbridge,49.7,-112.82,77.0,36,75,9.17,CA,1595811162
377,Codrington,-38.27,141.97,54.03,73,0,17.72,AU,1595811028
378,Isabela,6.71,121.97,77.0,100,90,2.24,PH,1595811162
379,Anking,30.51,117.05,78.4,84,100,5.37,CN,1595811163
380,El Tigre,8.89,-64.25,76.62,84,100,5.99,VE,1595811163
381,Morón,-34.65,-58.62,55.99,61,34,6.98,AR,1595810969
382,Puerto del Rosario,28.5,-13.86,73.4,83,90,18.34,ES,1595811164
383,Bubaque,11.28,-15.83,78.91,84,100,12.28,GW,1595811164
384,Lárdos,36.09,28.02,78.8,69,0,11.41,GR,1595811164
385,Voiron,45.36,5.59,66.0,77,0,3.36,FR,1595811165
386,Elizabeth City,36.29,-76.25,82.4,74,40,4.7,US,1595811165
387,Sambava,-14.27,50.17,68.72,88,100,15.26,MG,1595811064
388,Ouadda,8.08,22.4,65.5,96,93,2.75,CF,1595811166
389,Seddon,-37.81,144.89,55.99,87,90,10.29,AU,1595811166
390,Laas,46.62,10.7,57.99,93,5,3.36,IT,1595811167
391,Bathsheba,13.22,-59.52,82.4,74,20,12.75,BB,1595811167
392,Iquitos,-3.75,-73.25,75.2,88,40,1.9,PE,1595811168
393,Scarborough,54.28,-0.4,59.0,80,100,5.01,GB,1595811168
394,San Quintín,30.48,-115.95,71.47,73,0,13.76,MX,1595811168
395,Sahuaripa,29.05,-109.23,88.9,52,94,8.43,MX,1595811169
396,Marfino,55.7,37.38,63.0,77,100,6.71,RU,1595811169
397,Praia da Vitória,38.73,-27.07,75.2,83,75,3.94,PT,1595811169
398,Malvern,34.36,-92.81,87.8,58,1,4.7,US,1595810980
399,Raudeberg,61.99,5.14,59.0,87,100,12.75,NO,1595811170
400,Semendria,44.66,20.93,69.8,88,83,4.7,RS,1595811109
401,Muzhi,65.37,64.67,54.0,74,100,4.29,RU,1595811171
402,Sabha,27.04,14.43,80.89,21,0,8.37,LY,1595811171
403,Moses Lake,47.13,-119.28,96.8,13,1,4.7,US,1595811171
404,Qaqortoq,60.72,-46.03,50.0,76,6,5.82,GL,1595811231
405,Bull Savanna,17.89,-77.59,79.09,79,0,7.78,JM,1595811232
406,Eraniel,8.2,77.3,80.6,83,40,5.82,IN,1595811232
407,Kushiro,42.98,144.37,59.0,87,75,4.7,JP,1595811232
408,Gafanha da Encarnação,40.62,-8.73,64.0,91,0,5.99,PT,1595811232
409,Sehore,23.2,77.08,77.0,94,20,6.93,IN,1595811233
410,Grindavik,63.84,-22.43,48.2,81,56,11.41,IS,1595811233
411,Porto-Novo,6.5,2.6,75.31,83,75,8.99,BJ,1595811233
412,Kota Belud,6.35,116.43,82.4,83,20,1.12,MY,1595811233
413,Sterling,39.01,-77.43,89.01,52,75,4.7,US,1595811124
414,Pushkino,56.02,37.87,63.0,82,100,6.71,RU,1595811234
415,Dodola,6.98,39.18,53.83,91,100,2.86,ET,1595811234
416,Itarema,-2.92,-39.92,77.07,81,99,13.65,BR,1595811234
417,Bandarbeyla,9.49,50.81,80.33,62,0,19.84,SO,1595811235
418,Chhor,25.52,69.77,88.45,63,0,7.74,PK,1595811235
419,San Jose,37.34,-121.89,82.99,44,20,13.87,US,1595811232
420,Bergen,60.39,5.33,57.2,93,75,14.99,NO,1595810953
421,Palafrugell,41.92,3.16,71.01,54,0,3.18,ES,1595811235
422,Qasigiannguit,68.82,-51.19,44.6,93,100,3.36,GL,1595811236
423,Teguise,29.06,-13.56,73.4,78,90,19.46,ES,1595811236
424,Khanpur,28.65,70.66,93.54,46,88,10.18,PK,1595811236
425,Datong,40.09,113.29,69.17,66,33,7.4,CN,1595811057
426,Alta Floresta,-9.88,-56.09,74.66,44,0,4.29,BR,1595811064
427,Krasnyy Kholm,58.06,37.12,54.34,95,6,3.76,RU,1595811237
428,Touros,-5.2,-35.46,71.6,94,75,2.24,BR,1595811237
429,Funadhoo,6.15,73.27,81.41,73,81,9.24,MV,1595811237
430,Iskateley,67.68,53.15,56.37,76,40,6.93,RU,1595811238
431,Kimbe,-5.55,150.14,89.6,54,91,2.42,PG,1595811238
432,Luena,-11.78,19.92,49.51,61,0,3.87,AO,1595811238
433,Palu,-0.89,119.87,84.22,63,47,1.28,ID,1595811088
434,Lewistown,40.6,-77.57,80.6,57,1,3.98,US,1595811239
435,Hay River,60.82,-115.8,71.6,60,75,10.29,CA,1595811239
436,Sitka,57.05,-135.33,53.6,93,90,13.87,US,1595811239
437,Katete,-0.78,29.75,65.46,85,100,2.28,UG,1595811239
438,Souillac,-20.52,57.52,70.0,70,95,10.0,MU,1595811240
439,Ikwiriri,-7.96,38.97,68.56,81,76,3.38,TZ,1595811240
440,Atbasar,51.8,68.33,58.51,85,13,8.23,KZ,1595811241
441,Dalen,52.7,6.76,57.99,93,100,7.47,NL,1595811241
442,Chui,-33.7,-53.46,46.89,88,95,7.63,UY,1595811013
443,Filingué,14.35,3.32,90.7,46,29,10.94,NE,1595811241
444,Bambanglipuro,-7.95,110.28,78.06,72,18,11.25,ID,1595811242
445,Kavieng,-2.57,150.8,83.77,73,100,7.85,PG,1595811242
446,Tarakan,3.3,117.63,78.73,84,100,5.5,ID,1595811242
447,La Unión,-5.4,-80.75,66.13,71,0,16.6,PE,1595811242
448,Kemijärvi,66.71,27.43,48.58,92,0,3.18,FI,1595811242
449,Wasilla,61.58,-149.44,64.0,87,75,3.36,US,1595811243
450,Lodwar,3.12,35.6,75.69,65,15,3.56,KE,1595811243
451,Aykhal,66.0,111.5,37.4,93,90,6.71,RU,1595811243
452,Mossamedes,-15.2,12.15,66.56,76,0,3.65,AO,1595811063
453,Tezu,27.92,96.17,83.05,65,0,0.87,IN,1595811304
454,Svay Rieng,11.09,105.8,82.49,77,0,5.95,KH,1595811005
455,Barcelona,41.39,2.16,77.0,88,20,1.12,ES,1595811035
456,Teshie,5.58,-0.11,75.2,94,75,8.05,GH,1595811305
457,Diré,12.28,-10.97,73.24,93,100,3.13,ML,1595811305
458,Kalmunai,7.42,81.82,79.36,80,100,1.36,LK,1595811305
459,San Remigio,11.08,123.94,84.61,73,1,3.74,PH,1595811305
460,Gamboma,-1.88,15.86,77.38,60,64,3.98,CG,1595811305
461,Naze,28.37,129.48,86.0,94,75,10.29,JP,1595811306
462,Zainsk,55.32,52.07,55.4,93,10,4.47,RU,1595811306
463,Oxapampa,-10.58,-75.4,57.52,91,58,1.77,PE,1595811307
464,Norman Wells,65.28,-126.83,64.4,68,75,5.82,CA,1595811022
465,Krasnoarmiys'k,48.28,37.18,70.2,39,95,10.76,UA,1595811218
466,Kieta,-6.22,155.63,85.3,65,100,7.25,PG,1595811307
467,Jalu,29.03,21.55,76.86,58,0,8.57,LY,1595811308
468,Sharjah city,25.36,55.4,95.0,41,99,10.29,AE,1595811107
469,Westport,41.14,-73.36,87.8,40,1,4.7,US,1595811308
470,Qui Nhon,13.77,109.23,85.37,64,29,3.51,VN,1595811309
471,Luba,3.46,8.55,75.2,100,40,5.82,GQ,1595811309
472,São João do Paraíso,-15.31,-42.01,60.55,94,2,6.44,BR,1595811309
473,Rio Pardo,-29.99,-52.38,46.15,83,0,3.96,BR,1595811309
474,Morant Bay,17.88,-76.41,87.8,58,20,26.4,JM,1595811310
475,Dingle,11.0,122.67,83.8,74,93,2.13,PH,1595811310
476,Paratinga,-12.69,-43.18,69.71,63,0,4.23,BR,1595811020
477,Strezhevoy,60.73,77.59,55.4,82,0,6.71,RU,1595811310
478,Gangtok,27.33,88.62,69.67,76,85,0.04,IN,1595811311
479,Tomohon,1.33,124.84,84.2,66,40,10.29,ID,1595811311
480,Stornoway,58.21,-6.39,52.0,93,100,26.4,GB,1595811311
481,Santa Fe,-31.63,-60.7,55.99,59,0,1.99,AR,1595811311
482,Severnyy,50.68,36.55,60.8,63,72,8.95,RU,1595811312
483,Yakima,46.47,-120.67,93.0,19,1,5.23,US,1595811181
484,Santa Barbara,34.42,-119.7,86.0,72,1,14.99,US,1595811182
485,Roald,62.58,6.13,59.0,87,100,21.92,NO,1595811313
486,Burnie,-41.07,145.92,55.0,63,100,4.0,AU,1595811313
487,Syas'stroy,60.14,32.57,54.43,74,1,2.68,RU,1595811313
488,Sabla,12.75,4.71,80.29,73,13,12.03,NG,1595811313
489,Panalingaan,8.78,117.42,85.71,66,50,2.19,PH,1595811314
490,Hargeisa,9.56,44.06,67.8,67,38,26.82,SO,1595811314
491,Nanchang,28.68,115.88,81.99,84,100,3.65,CN,1595811314
492,Sørland,67.67,12.69,59.14,72,100,19.95,NO,1595811057
493,Rome,43.21,-75.46,84.2,62,1,6.93,US,1595811315
494,Adré,13.47,22.2,74.71,83,100,9.17,TD,1595811315
495,Ürümqi,43.8,87.6,80.6,32,78,6.71,CN,1595811315
496,Carahue,-38.7,-73.17,44.6,93,75,2.24,CL,1595811315
497,Shouguang,36.88,118.74,78.73,66,6,6.13,CN,1595811316
498,Nishihara,26.18,127.76,87.8,74,75,14.99,JP,1595811316
499,Kostanay,53.17,63.58,57.2,87,20,6.71,KZ,1595811316
500,Zhigansk,66.77,123.37,53.92,60,31,12.28,RU,1595811376
501,Pangnirtung,66.15,-65.71,53.02,67,100,2.26,CA,1595811377
502,Eagle Pass,28.71,-100.5,78.8,78,40,18.34,US,1595811377
503,Sawākin,19.11,37.33,92.1,51,88,2.04,SD,1595811377
504,Ondjiva,-17.07,15.73,53.47,43,0,7.25,AO,1595811378
505,Kibala,9.11,18.35,69.57,98,78,3.83,TD,1595811378
506,Altagracia de Orituco,9.86,-66.38,72.43,92,100,3.65,VE,1595811378
507,Moussoro,13.64,16.49,81.66,70,62,20.33,TD,1595811378
508,Mpongwe,-13.51,28.16,48.36,78,0,5.66,ZM,1595811379
509,Uvel'skiy,54.44,61.36,55.11,88,100,5.75,RU,1595811379
510,Te Anau,-45.42,167.72,47.8,68,0,0.72,NZ,1595811379
511,Trairi,-3.28,-39.27,77.49,78,100,12.59,BR,1595811379
512,Tucuruí,-3.77,-49.67,75.49,60,25,2.21,BR,1595811380
513,Arak,34.09,49.69,71.65,28,5,2.15,IR,1595811380
514,Noumea,-22.28,166.46,80.6,54,4,9.17,NC,1595811380
515,Beringovskiy,63.05,179.32,70.0,59,94,5.88,RU,1595811380
516,Xining,36.62,101.77,64.6,44,100,3.36,CN,1595811380
517,Sobolevo,54.43,31.9,61.63,95,100,3.11,RU,1595811381
518,Ippy,6.27,21.22,66.96,99,85,2.37,CF,1595811381
519,Usinsk,65.99,57.53,54.54,72,45,11.07,RU,1595811381
520,Benghazi,32.12,20.07,77.36,80,0,12.44,LY,1595811381
521,Kenora,49.82,-94.43,75.2,47,75,9.17,CA,1595811382
522,San Cristobal,7.77,-72.22,66.07,89,68,1.86,VE,1595811382
523,Bulolo,-7.2,146.65,85.71,48,3,3.67,PG,1595811382
524,Nong’an,44.38,125.17,80.6,57,90,8.95,CN,1595811382
525,Chimbote,-9.09,-78.58,60.04,88,0,6.04,PE,1595811383
526,Saint-Michel-des-Saints,46.68,-73.92,77.0,8,10,6.08,CA,1595811383
527,Caiapônia,-16.96,-51.81,65.75,41,0,2.91,BR,1595811124
528,Nantucket,41.28,-70.1,73.99,94,90,16.11,US,1595811384
529,Rosário do Sul,-30.26,-54.91,47.95,87,0,7.99,BR,1595811384
530,Lazarev,52.23,141.51,58.01,93,91,12.03,RU,1595811384
531,Kerema,-7.96,145.78,81.5,80,34,3.51,PG,1595811384
532,Mercedes,-34.65,-59.43,50.0,76,93,6.42,AR,1595811385
533,Tsuruga,35.65,136.06,82.99,84,100,1.01,JP,1595811385
534,Flinders,-34.58,150.86,60.01,92,100,10.0,AU,1595811385
535,Esik,43.36,77.45,69.8,68,90,13.42,KZ,1595811385
536,Preeceville,51.95,-102.67,64.67,79,0,12.71,CA,1595811386
537,Atambua,-9.11,124.89,78.35,53,99,6.2,ID,1595811386
538,Bobbili,18.57,83.37,82.67,78,95,2.19,IN,1595811131
539,Srednekolymsk,67.45,153.68,74.35,49,100,14.47,RU,1595811386
540,Puro,12.48,123.38,84.58,74,70,5.75,PH,1595811386
541,Juneau,58.3,-134.42,60.8,77,90,10.29,US,1595811387
542,Gao,16.64,1.64,93.25,36,24,8.86,ML,1595811387
543,Maningrida,-12.07,134.27,77.97,43,97,15.28,AU,1595811387
544,Aconibe,1.3,10.94,66.58,98,98,3.38,GQ,1595811387
545,Soyo,-6.13,12.37,71.35,87,3,6.15,AO,1595811388
546,Hudson Bay,52.85,-102.38,68.79,62,55,10.07,CA,1595811247
547,Cururupu,-1.83,-44.87,73.83,82,9,1.68,BR,1595811448
548,Moa,20.66,-74.94,81.01,86,4,10.29,CU,1595811449
549,Pisco,-13.7,-76.22,62.6,77,75,11.41,PE,1595811449
550,Cabedelo,-6.98,-34.83,73.4,94,90,6.93,BR,1595811386
551,Evensk,61.95,159.23,54.95,84,96,11.27,RU,1595811449
552,Marrakesh,31.63,-8.01,78.8,57,20,8.05,MA,1595811257
553,Werda,-25.27,23.28,48.33,49,0,7.47,BW,1595811450
554,Paraíso,9.84,-83.87,71.6,94,75,3.36,CR,1595811450
555,Merauke,-8.47,140.33,81.0,75,77,14.0,ID,1595811450
556,Khovd,48.01,91.64,68.74,35,1,5.23,MN,1595811450
557,Lakes Entrance,-37.88,147.98,54.0,98,100,1.01,AU,1595811451
558,Alagoinhas,-12.14,-38.42,66.94,97,20,2.66,BR,1595811421
559,San Patricio,19.22,-104.7,87.8,79,75,9.17,MX,1595811452
560,Chifeng,42.27,118.96,75.16,54,96,9.28,CN,1595811452
561,Témiscaming,46.72,-79.1,79.0,83,90,6.93,CA,1595811452
562,Bissau,11.86,-15.6,77.95,88,100,9.46,GW,1595811453
563,Banda Aceh,5.56,95.32,80.28,75,99,5.3,ID,1595811242
564,Waipawa,-41.41,175.52,54.0,81,0,4.7,NZ,1595811453
565,Belyy Yar,53.6,91.39,62.6,82,40,6.71,RU,1595811453
566,Marabu,4.41,114.01,80.6,88,40,2.24,MY,1595811454
567,Shenjiamen,29.96,122.3,78.87,93,100,15.1,CN,1595811454
568,Mason City,43.15,-93.2,79.0,83,1,4.7,US,1595811454
569,Sittwe,20.15,92.9,83.19,83,100,4.61,MM,1595811455
570,Mokhsogollokh,61.47,128.92,70.14,61,100,4.47,RU,1595811455
571,Pleasant Grove,40.36,-111.74,89.01,26,39,1.01,US,1595811455
572,Ugoofaaru,5.67,73.0,81.77,72,2,8.32,MV,1595811455
573,Segezha,63.74,34.32,53.82,89,0,3.36,RU,1595811456
